[
	{
		"id":"1",
		"name":"Wokitup Gungahlin",
		"lat":"-35.185871",
		"lng":"149.135211",
		"address":"Gungahlin",
		"address2":"",
		"city":"Canberra",
		"state":"ACT",
		"postal":"2912",
		"phone":"02 6212 1212",
		"web":"Order Online Gungahlin",
		"hours1":"Mon-Thurs 1030am-0900pm",
		"hours2":"Fri & Sat 1030am-0930pm",
		"hours3":"Sunday 1100am-0900pm"
	},
	{
		"id":"2",
		"name":"Wokitup Belconnen",
		"lat":"-35.237057",
		"lng":"149.070781",
		"address":"Belconnen",
		"address2":"",
		"city":"Canberra",
		"state":"ACT",
		"postal":"2617",
		"phone":"02 6111 1111",
		"web":"Order Online Belconnen",
		"hours1":"Mon-Sun 11am-10pm",
		"hours2":"",
		"hours3":""
	},
	{
		"id":"3",
		"name":"Wokitup Braddon",
		"lat":"-35.272848",
		"lng":"149.133036",
		"address":"22 Lonsdale St",
		"address2":"",
		"city":"Canberra",
		"state":"ACT",
		"postal":"2612",
		"phone":"02 6222 2223",
		"web":"Order Online Braddon",
		"hours1":"Mon-Sun 11am-10pm",
		"hours2":"",
		"hours3":""
	},
	{
		"id":"4",
		"name":"Wokitup Phillip",
		"lat":"-35.349968",
		"lng":"149.088860",
		"address":"5/46 Botany Street",
		"address2":"Phillip",
		"city":"Canberra",
		"state":"ACT",
		"postal":"2606",
		"phone":"02 6285 3338",
		"web":"Order Online Phillip",
		"hours1":"Mon-Sun 11am-10pm",
		"hours2":"",
		"hours3":""
	},
	{
		"id":"5",
		"name":"Wokitup Erindale",
		"lat":"-35.405814",
		"lng":"149.099820",
		"address":"20 Gartside St",
		"address2":"Wanniassa",
		"city":"Canberra",
		"state":"ACT",
		"postal":"2903",
		"phone":"02 6288 9999",
		"web":"Order Online Erindale",
		"hours1":"Mon-Sun 11am-10pm",
		"hours2":"",
		"hours3":""
	}
]